{
  "type": "FeatureCollection",
  "features": [
    {
      "type": "Feature",
      "properties": {
        "2009": 2227698,
        "2010": 2504208,
        "2011": 2374645,
        "2012": 2431052,
        "2013": 2254922,
        "2014": 2563129,
        "2015": 2811184,
        "ParkName": "Acadia"
      },
      "geometry": {
        "type": "Point",
        "coordinates": [
          -68.2167,
          44.35
        ]
      }
    },
    {
      "type": "Feature",
      "properties": {
        "2009": 996312,
        "2010": 1014405,
        "2011": 1040758,
        "2012": 1070577,
        "2013": 1082866,
        "2014": 1284767,
        "2015": 1399247,
        "ParkName": "Arches"
      },
      "geometry": {
        "type": "Point",
        "coordinates": [
          -109.5667,
          38.6833
        ]
      }
    },
    {
      "type": "Feature",
      "properties": {
        "2009": 933918,
        "2010": 977778,
        "2011": 870741,
        "2012": 883406,
        "2013": 892372,
        "2014": 868094,
        "2015": 989354,
        "ParkName": "Badlands"
      },
      "geometry": {
        "type": "Point",
        "coordinates": [
          -102.5,
          43.75
        ]
      }
    },
    {
      "type": "Feature",
      "properties": {
        "2009": 363905,
        "2010": 372330,
        "2011": 361862,
        "2012": 292055,
        "2013": 316953,
        "2014": 314102,
        "2015": 381747,
        "ParkName": "Big Bend"
      },
      "geometry": {
        "type": "Point",
        "coordinates": [
          -103.25,
          59.25
        ]
      }
    },
    {
      "type": "Feature",
      "properties": {
        "2009": 437745,
        "2010": 467612,
        "2011": 476077,
        "2012": 495613,
        "2013": 486848,
        "2014": 525745,
        "2015": 508164,
        "ParkName": "Biscayne"
      },
      "geometry": {
        "type": "Point",
        "coordinates": [
          -80.1861,
          25.4694
        ]
      }
    },
    {
      "type": "Feature",
      "properties": {
        "2009": 171451,
        "2010": 176344,
        "2011": 168336,
        "2012": 192570,
        "2013": 175852,
        "2014": 183045,
        "2015": 209166,
        "ParkName": "Black Canyon of the Gunnison"
      },
      "geometry": {
        "type": "Point",
        "coordinates": [
          -107.7167,
          38.5667
        ]
      }
    },
    {
      "type": "Feature",
      "properties": {
        "2009": 1216377,
        "2010": 1285492,
        "2011": 1296000,
        "2012": 1385352,
        "2013": 1311875,
        "2014": 1435741,
        "2015": 1745804,
        "ParkName": "Bryce Canyon"
      },
      "geometry": {
        "type": "Point",
        "coordinates": [
          -112.1677,
          37.6283
        ]
      }
    },
    {
      "type": "Feature",
      "properties": {
        "2009": 436241,
        "2010": 435908,
        "2011": 473773,
        "2012": 452952,
        "2013": 462242,
        "2014": 542431,
        "2015": 634607,
        "ParkName": "Canyonlands"
      },
      "geometry": {
        "type": "Point",
        "coordinates": [
          -109.7597,
          38.1669
        ]
      }
    },
    {
      "type": "Feature",
      "properties": {
        "2009": 617208,
        "2010": 662661,
        "2011": 668834,
        "2012": 673345,
        "2013": 663670,
        "2014": 786514,
        "2015": 941029,
        "ParkName": "Capitol Reef"
      },
      "geometry": {
        "type": "Point",
        "coordinates": [
          -111.1667,
          38.2
        ]
      }
    },
    {
      "type": "Feature",
      "properties": {
        "2009": 432639,
        "2010": 428524,
        "2011": 365000,
        "2012": 381058,
        "2013": 388566,
        "2014": 397309,
        "2015": 445720,
        "ParkName": "Carlsbad Caverns"
      },
      "geometry": {
        "type": "Point",
        "coordinates": [
          -104.4439,
          32.1753
        ]
      }
    },
    {
      "type": "Feature",
      "properties": {
        "2009": 348745,
        "2010": 277515,
        "2011": 242756,
        "2012": 249594,
        "2013": 212029,
        "2014": 342161,
        "2015": 324816,
        "ParkName": "Channel Islands"
      },
      "geometry": {
        "type": "Point",
        "coordinates": [
          -119.4167,
          34.0083
        ]
      }
    },
    {
      "type": "Feature",
      "properties": {
        "2009": 122970,
        "2010": 121208,
        "2011": 120166,
        "2012": 109685,
        "2013": 120340,
        "2014": 120122,
        "2015": 87513,
        "ParkName": "Congaree"
      },
      "geometry": {
        "type": "Point",
        "coordinates": [
          -80.7833,
          33.7833
        ]
      }
    },
    {
      "type": "Feature",
      "properties": {
        "2009": 446516,
        "2010": 448319,
        "2011": 423551,
        "2012": 447251,
        "2013": 523027,
        "2014": 535508,
        "2015": 614712,
        "ParkName": "Crater Lake"
      },
      "geometry": {
        "type": "Point",
        "coordinates": [
          -122.1481,
          42.9118
        ]
      }
    },
    {
      "type": "Feature",
      "properties": {
        "2009": 2589288,
        "2010": 2492670,
        "2011": 2161185,
        "2012": 2299722,
        "2013": 2103010,
        "2014": 2189849,
        "2015": 2284612,
        "ParkName": "Cuyahoga Valley"
      },
      "geometry": {
        "type": "Point",
        "coordinates": [
          -81.5497,
          41.2417
        ]
      }
    },
    {
      "type": "Feature",
      "properties": {
        "2009": 828574,
        "2010": 984775,
        "2011": 946867,
        "2012": 984568,
        "2013": 951972,
        "2014": 1101312,
        "2015": 1154843,
        "ParkName": "Death Valley"
      },
      "geometry": {
        "type": "Point",
        "coordinates": [
          -116.8258,
          36.2419
        ]
      }
    },
    {
      "type": "Feature",
      "properties": {
        "2009": 52011,
        "2010": 53890,
        "2011": 75171,
        "2012": 60550,
        "2013": 58401,
        "2014": 64865,
        "2015": 70862,
        "ParkName": "Dry Tortugas"
      },
      "geometry": {
        "type": "Point",
        "coordinates": [
          -82.8733,
          24.6286
        ]
      }
    },
    {
      "type": "Feature",
      "properties": {
        "2009": 900882,
        "2010": 915538,
        "2011": 934351,
        "2012": 1141906,
        "2013": 1047116,
        "2014": 1110901,
        "2015": 1077427,
        "ParkName": "Everglades"
      },
      "geometry": {
        "type": "Point",
        "coordinates": [
          -80.9333,
          25.3167
        ]
      }
    },
    {
      "type": "Feature",
      "properties": {
        "2009": 2031348,
        "2010": 2200048,
        "2011": 1853564,
        "2012": 2162035,
        "2013": 2190374,
        "2014": 2338528,
        "2015": 2366056,
        "ParkName": "Glacier"
      },
      "geometry": {
        "type": "Point",
        "coordinates": [
          -113.7183,
          48.6967
        ]
      }
    },
    {
      "type": "Feature",
      "properties": {
        "2009": 4348068,
        "2010": 4388386,
        "2011": 4298178,
        "2012": 4421352,
        "2013": 4564840,
        "2014": 4756771,
        "2015": 5520736,
        "ParkName": "Grand Canyon"
      },
      "geometry": {
        "type": "Point",
        "coordinates": [
          -112.1218,
          36.0553
        ]
      }
    },
    {
      "type": "Feature",
      "properties": {
        "2009": 2580081,
        "2010": 2669374,
        "2011": 2587437,
        "2012": 2705256,
        "2013": 2688794,
        "2014": 2791392,
        "2015": 3149921,
        "ParkName": "Grand Teton"
      },
      "geometry": {
        "type": "Point",
        "coordinates": [
          -110.7008,
          43.8333
        ]
      }
    },
    {
      "type": "Feature",
      "properties": {
        "2009": 84974,
        "2010": 88870,
        "2011": 91451,
        "2012": 94850,
        "2013": 92893,
        "2014": 107526,
        "2015": 116123,
        "ParkName": "Great Basin"
      },
      "geometry": {
        "type": "Point",
        "coordinates": [
          -114.2197,
          39.0058
        ]
      }
    },
    {
      "type": "Feature",
      "properties": {
        "2009": 9491437,
        "2010": 9463538,
        "2011": 9008830,
        "2012": 9685829,
        "2013": 9354695,
        "2014": 10099276,
        "2015": 10712674,
        "ParkName": "Great Smoky Mountains "
      },
      "geometry": {
        "type": "Point",
        "coordinates": [
          -83.5333,
          35.6833
        ]
      }
    },
    {
      "type": "Feature",
      "properties": {
        "2009": 198882,
        "2010": 192210,
        "2011": 152546,
        "2012": 159360,
        "2013": 145670,
        "2014": 166868,
        "2015": 169535,
        "ParkName": "Guadalupe Mountains"
      },
      "geometry": {
        "type": "Point",
        "coordinates": [
          -104.8667,
          31.9167
        ]
      }
    },
    {
      "type": "Feature",
      "properties": {
        "2009": 1109104,
        "2010": 1105606,
        "2011": 956989,
        "2012": 1094668,
        "2013": 785300,
        "2014": 1142040,
        "2015": 1216772,
        "ParkName": "Haleakala"
      },
      "geometry": {
        "type": "Point",
        "coordinates": [
          -156.1667,
          20.7167
        ]
      }
    },
    {
      "type": "Feature",
      "properties": {
        "2009": 1233105,
        "2010": 1304667,
        "2011": 1352123,
        "2012": 1483928,
        "2013": 1583209,
        "2014": 1693005,
        "2015": 1832660,
        "ParkName": "Hawaii Volcanoes"
      },
      "geometry": {
        "type": "Point",
        "coordinates": [
          -155.2,
          19.3833
        ]
      }
    },
    {
      "type": "Feature",
      "properties": {
        "2009": 1284707,
        "2010": 1311807,
        "2011": 1396354,
        "2012": 1302505,
        "2013": 1325719,
        "2014": 1424484,
        "2015": 1418162,
        "ParkName": "Hot Springs"
      },
      "geometry": {
        "type": "Point",
        "coordinates": [
          -93.0536,
          34.5136
        ]
      }
    },
    {
      "type": "Feature",
      "properties": {
        "2009": 14653,
        "2010": 15793,
        "2011": 15892,
        "2012": 16663,
        "2013": 16274,
        "2014": 14560,
        "2015": 18684,
        "ParkName": "Isle Royale"
      },
      "geometry": {
        "type": "Point",
        "coordinates": [
          -88.55,
          48.1
        ]
      }
    },
    {
      "type": "Feature",
      "properties": {
        "2009": 1304471,
        "2010": 1434976,
        "2011": 1396237,
        "2012": 1396117,
        "2013": 1383340,
        "2014": 1589904,
        "2015": 2025756,
        "ParkName": "Joshua Tree"
      },
      "geometry": {
        "type": "Point",
        "coordinates": [
          -115.8982,
          33.7884
        ]
      }
    },
    {
      "type": "Feature",
      "properties": {
        "2009": 218358,
        "2010": 297596,
        "2011": 346852,
        "2012": 281279,
        "2013": 283502,
        "2014": 270666,
        "2015": 296697,
        "ParkName": "Kenai Fjords"
      },
      "geometry": {
        "type": "Point",
        "coordinates": [
          -149.9875,
          59.9178
        ]
      }
    },
    {
      "type": "Feature",
      "properties": {
        "2009": 609296,
        "2010": 598205,
        "2011": 566810,
        "2012": 591033,
        "2013": 567544,
        "2014": 502268,
        "2015": 468106,
        "ParkName": "Kings Canyon"
      },
      "geometry": {
        "type": "Point",
        "coordinates": [
          -118.6729,
          36.7893
        ]
      }
    },
    {
      "type": "Feature",
      "properties": {
        "2009": 1879,
        "2010": 3164,
        "2011": 11485,
        "2012": 29550,
        "2013": 16875,
        "2014": 0,
        "2015": 0,
        "ParkName": "Kobuk Valley"
      },
      "geometry": {
        "type": "Point",
        "coordinates": [
          -159.2833,
          67.55
        ]
      }
    },
    {
      "type": "Feature",
      "properties": {
        "2009": 365639,
        "2010": 384570,
        "2011": 351269,
        "2012": 407653,
        "2013": 427409,
        "2014": 432977,
        "2015": 468092,
        "ParkName": "Lassen Volcanic"
      },
      "geometry": {
        "type": "Point",
        "coordinates": [
          -121.505,
          40.4877
        ]
      }
    },
    {
      "type": "Feature",
      "properties": {
        "2009": 503856,
        "2010": 497225,
        "2011": 483319,
        "2012": 508054,
        "2013": 494541,
        "2014": 522628,
        "2015": 566895,
        "ParkName": "Mammoth Cave"
      },
      "geometry": {
        "type": "Point",
        "coordinates": [
          -86.1,
          37.1833
        ]
      }
    },
    {
      "type": "Feature",
      "properties": {
        "2009": 550377,
        "2010": 559712,
        "2011": 572329,
        "2012": 488860,
        "2013": 460237,
        "2014": 501563,
        "2015": 547325,
        "ParkName": "Mesa Verde"
      },
      "geometry": {
        "type": "Point",
        "coordinates": [
          -108.4887,
          37.1838
        ]
      }
    },
    {
      "type": "Feature",
      "properties": {
        "2009": 1151654,
        "2010": 1191754,
        "2011": 1038229,
        "2012": 1049178,
        "2013": 1148552,
        "2014": 1264259,
        "2015": 1237231,
        "ParkName": "Mount Rainier"
      },
      "geometry": {
        "type": "Point",
        "coordinates": [
          -121.7604,
          46.8529
        ]
      }
    },
    {
      "type": "Feature",
      "properties": {
        "2009": 26972,
        "2010": 24659,
        "2011": 19208,
        "2012": 26935,
        "2013": 21623,
        "2014": 23865,
        "2015": 20677,
        "ParkName": "North Cascades"
      },
      "geometry": {
        "type": "Point",
        "coordinates": [
          -121.3475,
          48.8328
        ]
      }
    },
    {
      "type": "Feature",
      "properties": {
        "2009": 3276459,
        "2010": 2844563,
        "2011": 2966502,
        "2012": 2824908,
        "2013": 3085340,
        "2014": 3243872,
        "2015": 3263761,
        "ParkName": "Olympic"
      },
      "geometry": {
        "type": "Point",
        "coordinates": [
          -123.4986,
          47.9694
        ]
      }
    },
    {
      "type": "Feature",
      "properties": {
        "2009": 631613,
        "2010": 664725,
        "2011": 614054,
        "2012": 664857,
        "2013": 644648,
        "2014": 836799,
        "2015": 793225,
        "ParkName": "Petrified Forest"
      },
      "geometry": {
        "type": "Point",
        "coordinates": [
          -109.8064,
          35.0881
        ]
      }
    },
    {
      "type": "Feature",
      "properties": {
        "2009": 171112,
        "2010": 246575,
        "2011": 393219,
        "2012": 224476,
        "2013": 237677,
        "2014": 196635,
        "2015": 206533,
        "ParkName": "Pinnacles"
      },
      "geometry": {
        "type": "Point",
        "coordinates": [
          -121.1669,
          36.4869
        ]
      }
    },
    {
      "type": "Feature",
      "properties": {
        "2009": 444426,
        "2010": 418820,
        "2011": 380167,
        "2012": 352517,
        "2013": 393364,
        "2014": 429166,
        "2015": 527143,
        "ParkName": "Redwood"
      },
      "geometry": {
        "type": "Point",
        "coordinates": [
          -124,
          41.3
        ]
      }
    },
    {
      "type": "Feature",
      "properties": {
        "2009": 2822325,
        "2010": 2955821,
        "2011": 3176941,
        "2012": 3229617,
        "2013": 2991141,
        "2014": 3434751,
        "2015": 4155916,
        "ParkName": "Rocky Mountain"
      },
      "geometry": {
        "type": "Point",
        "coordinates": [
          -105.7089,
          40.3333
        ]
      }
    },
    {
      "type": "Feature",
      "properties": {
        "2009": 665234,
        "2010": 717614,
        "2011": 610045,
        "2012": 634286,
        "2013": 678261,
        "2014": 673572,
        "2015": 753446,
        "ParkName": "Saguaro"
      },
      "geometry": {
        "type": "Point",
        "coordinates": [
          -110.5,
          32.25
        ]
      }
    },
    {
      "type": "Feature",
      "properties": {
        "2009": 965170,
        "2010": 1002979,
        "2011": 1006583,
        "2012": 1106584,
        "2013": 909274,
        "2014": 1039137,
        "2015": 1097464,
        "ParkName": "Sequoia"
      },
      "geometry": {
        "type": "Point",
        "coordinates": [
          -118.5044,
          36.04
        ]
      }
    },
    {
      "type": "Feature",
      "properties": {
        "2009": 1120981,
        "2010": 1253386,
        "2011": 1209883,
        "2012": 1210200,
        "2013": 1136505,
        "2014": 1255321,
        "2015": 1321873,
        "ParkName": "Shenandoah"
      },
      "geometry": {
        "type": "Point",
        "coordinates": [
          -78.35,
          38.5333
        ]
      }
    },
    {
      "type": "Feature",
      "properties": {
        "2009": 586928,
        "2010": 623748,
        "2011": 563407,
        "2012": 640555,
        "2013": 545090,
        "2014": 559580,
        "2015": 580033,
        "ParkName": "Theodore Roosevelt"
      },
      "geometry": {
        "type": "Point",
        "coordinates": [
          -103.45,
          46.9667
        ]
      }
    },
    {
      "type": "Feature",
      "properties": {
        "2009": 415847,
        "2010": 493477,
        "2011": 442414,
        "2012": 483341,
        "2013": 438601,
        "2014": 426930,
        "2015": 438372,
        "ParkName": "Virgin Islands"
      },
      "geometry": {
        "type": "Point",
        "coordinates": [
          -64.7333,
          18.3333
        ]
      }
    },
    {
      "type": "Feature",
      "properties": {
        "2009": 222429,
        "2010": 253891,
        "2011": 177184,
        "2012": 214841,
        "2013": 233390,
        "2014": 239160,
        "2015": 238313,
        "ParkName": "Voyageurs"
      },
      "geometry": {
        "type": "Point",
        "coordinates": [
          -92.8833,
          48.5
        ]
      }
    },
    {
      "type": "Feature",
      "properties": {
        "2009": 587868,
        "2010": 577141,
        "2011": 538394,
        "2012": 529083,
        "2013": 516142,
        "2014": 547022,
        "2015": 612198,
        "ParkName": "Wind Cave"
      },
      "geometry": {
        "type": "Point",
        "coordinates": [
          -103.4786,
          43.5564
        ]
      }
    },
    {
      "type": "Feature",
      "properties": {
        "2009": 3295187,
        "2010": 3640185,
        "2011": 3394326,
        "2012": 3447729,
        "2013": 3188030,
        "2014": 3513484,
        "2015": 4097710,
        "ParkName": "Yellowstone"
      },
      "geometry": {
        "type": "Point",
        "coordinates": [
          -110.5,
          44.6
        ]
      }
    },
    {
      "type": "Feature",
      "properties": {
        "2009": 3737472,
        "2010": 3901408,
        "2011": 3951393,
        "2012": 3853404,
        "2013": 3691191,
        "2014": 3882642,
        "2015": 4150217,
        "ParkName": "Yosemite"
      },
      "geometry": {
        "type": "Point",
        "coordinates": [
          -119.5677,
          37.8499
        ]
      }
    },
    {
      "type": "Feature",
      "properties": {
        "2009": 2735402,
        "2010": 2665972,
        "2011": 2825505,
        "2012": 2973607,
        "2013": 2807387,
        "2014": 3189696,
        "2015": 3648846,
        "ParkName": "Zion"
      },
      "geometry": {
        "type": "Point",
        "coordinates": [
          -112.9878,
          37.2026
        ]
      }
    }
  ]
}